[
{"restaurants": [{"Id": 5469, "Name": "Crystal Jade Palace - Lotte Legend Saigon Hotel", "Categories": [{"Id": 12, "Name": "Sang trọng"}, {"Id": 1, "Name": "Nhà hàng"}], "Address": "Legend Hotel, 2A - 4A Tôn Đức Thắng, P. Bến Nghé", "Latitude": 10.778231, "Longitude": 106.706997, "DetailUrl": "/ho-chi-minh/crystal-jade-palace-legend-lounge-sai-gon", "DistrictUrl": "/ho-chi-minh/khu-vuc-quan-1", "BranchUrl": "/thuong-hieu/legend-hotel-saigon?c=ho-chi-minh", "isBranch": true}, {"Id": 90018, "Name": "San Fu Lou - Ẩm Thực Quảng Đông - Lê Lai", "Categories": [{"Id": 12, "Name": "Sang trọng"}, {"Id": 1, "Name": "Nhà hàng"}], "Address": "Tầng Trệt, AB Tower, 76A Lê Lai, P. Bến Thành", "Latitude": 10.770537, "Longitude": 106.694305, "DetailUrl": "/ho-chi-minh/nha-hang-san-fu-lou", "DistrictUrl": "/ho-chi-minh/khu-vuc-quan-1", "BranchUrl": "/thuong-hieu/san-fu-lou?c=ho-chi-minh", "isBranch": true}, {"Id": 107609, "Name": "The LOG Restaurant", "Categories": [{"Id": 12, "Name": "Sang trọng"}, {"Id": 1, "Name": "Nhà hàng"}], "Address": "Rooftop, GEM Center, 8 Nguyễn Bỉnh Khiêm", "Latitude": 10.7902846216159, "Longitude": 106.7019442095092, "DetailUrl": "/ho-chi-minh/the-log-restaurant", "DistrictUrl": "/ho-chi-minh/khu-vuc-quan-1", "BranchUrl": "", "isBranch": false}, {"Id": 91179, "Name": "Sorae Restaurant - Lounge", "Categories": [{"Id": 12, "Name": "Sang trọng"}, {"Id": 1, "Name": "Nhà hàng"}, {"Id": 4, "Name": "Bar/Pub"}], "Address": "Tầng 24 - 25, AB Tower, 76A Lê Lai", "Latitude": 10.770537, "Longitude": 106.694305, "DetailUrl": "/ho-chi-minh/nha-hang-sorae-sushi-sake-lounge", "DistrictUrl": "/ho-chi-minh/khu-vuc-quan-1", "BranchUrl": "/thuong-hieu/ab-tower?c=ho-chi-minh", "isBranch": true}, {"Id": 33141, "Name": "La Brasserie Restaurant - Hotel Nikko Saigon", "Categories": [{"Id": 12, "Name": "Sang trọng"}, {"Id": 39, "Name": "Buffet"}, {"Id": 1, "Name": "Nhà hàng"}], "Address": "Hotel Nikko Saigon, 235 Nguyễn Văn Cừ", "Latitude": 10.764356, "Longitude": 106.68275, "DetailUrl": "/ho-chi-minh/la-brasserie-nikko-saigon", "DistrictUrl": "/ho-chi-minh/khu-vuc-quan-1", "BranchUrl": "/thuong-hieu/nikko-hotel?c=ho-chi-minh", "isBranch": true}, {"Id": 20860, "Name": "EON 52 Heli Bar - Bitexco Tower", "Categories": [{"Id": 12, "Name": "Sang trọng"}, {"Id": 4, "Name": "Bar/Pub"}], "Address": "Tầng 52, Bitexco Tower, 2 Hải Triều", "Latitude": 10.772069, "Longitude": 106.70526, "DetailUrl": "/ho-chi-minh/eon-heli-bar-bitexco-tower", "DistrictUrl": "/ho-chi-minh/khu-vuc-quan-1", "BranchUrl": "/thuong-hieu/eon?c=ho-chi-minh", "isBranch": true}, {"Id": 603, "Name": "Lẩu Nấm Thiên Nhiên Ashima - Tú Xương", "Categories": [{"Id": 12, "Name": "Sang trọng"}, {"Id": 1, "Name": "Nhà hàng"}], "Address": "11 Tú Xương", "Latitude": 10.783469, "Longitude": 106.6893, "DetailUrl": "/ho-chi-minh/ashima-restaurant", "DistrictUrl": "/ho-chi-minh/khu-vuc-quan-3", "BranchUrl": "/thuong-hieu/lau-nam-thien-nhien-ashima-hcm?c=ho-chi-minh", "isBranch": true}, {"Id": 14, "Name": "NS Bến Thuyền", "Categories": [{"Id": 12, "Name": "Sang trọng"}, {"Id": 1, "Name": "Nhà hàng"}], "Address": "11 Nguyễn Văn Trỗi, P. 12", "Latitude": 10.7919259, "Longitude": 106.681183, "DetailUrl": "/ho-chi-minh/ngoc-suong-ben-thuyen-nguyen-van-troi", "DistrictUrl": "/ho-chi-minh/khu-vuc-quan-phu-nhuan", "BranchUrl": "", "isBranch": false}, {"Id": 4677, "Name": "Hải Sản Maria Saigon", "Categories": [{"Id": 12, "Name": "Sang trọng"}, {"Id": 1, "Name": "Nhà hàng"}], "Address": "172C Nguyễn Đình Chiểu, P. 6", "Latitude": 10.780676, "Longitude": 106.691859, "DetailUrl": "/ho-chi-minh/hai-san-maria-saigon", "DistrictUrl": "/ho-chi-minh/khu-vuc-quan-3", "BranchUrl": "", "isBranch": false}, {"Id": 72817, "Name": "Buffet Liberty Central Saigon Riverside", "Categories": [{"Id": 12, "Name": "Sang trọng"}, {"Id": 39, "Name": "Buffet"}, {"Id": 1, "Name": "Nhà hàng"}], "Address": "17 Tôn Đức Thắng", "Latitude": 10.774073, "Longitude": 106.706386, "DetailUrl": "/ho-chi-minh/buffet-liberty-central-saigon-riverside", "DistrictUrl": "/ho-chi-minh/khu-vuc-quan-1", "BranchUrl": "", "isBranch": false}, {"Id": 85258, "Name": "Mo Mo Paradise - Nguyễn Thị Minh Khai", "Categories": [{"Id": 12, "Name": "Sang trọng"}, {"Id": 1, "Name": "Nhà hàng"}], "Address": "96 Nguyễn Thị Minh Khai", "Latitude": 10.780378, "Longitude": 106.695438, "DetailUrl": "/ho-chi-minh/mo-mo-paradise-nguyen-thi-minh-khai", "DistrictUrl": "/ho-chi-minh/khu-vuc-quan-3", "BranchUrl": "/thuong-hieu/mo-mo-paradise-buffet-lau-nhat?c=ho-chi-minh", "isBranch": true}, {"Id": 51, "Name": "Nineteen Buffet Restaurant - Caravelle Saigon", "Categories": [{"Id": 12, "Name": "Sang trọng"}, {"Id": 39, "Name": "Buffet"}, {"Id": 1, "Name": "Nhà hàng"}], "Address": "Tầng Trệt Caravelle Saigon, 19 - 23 Công Trường Lam Sơn, P. Bến Nghé", "Latitude": 10.776229, "Longitude": 106.703489, "DetailUrl": "/ho-chi-minh/nineteen-buffet-caravelle-hotel", "DistrictUrl": "/ho-chi-minh/khu-vuc-quan-1", "BranchUrl": "/thuong-hieu/caravelle-hotel?c=ho-chi-minh", "isBranch": true}]}
]